name,cuisines,address,postal,rating,latitude,longitude
Hawker Chan,Chinese,"78 Smith St, Chinatown",058972,4.3,1.2801,103.8447
Burnt Ends,Western,20 Teck Lim Rd,088391,4.7,1.2781,103.841
Candlenut,Peranakan,17A Dempsey Rd,249676,4.5,1.3056,103.812
Odette,French,"1 St Andrew's Rd, #01-04",178957,4.8,1.2906,103.8514
Jumbo Seafood,Seafood,20 Upper Circular Rd,058416,4.4,1.2893,103.8484
